{
"type": "FeatureCollection",
"name": "My Places",
"crs": { "type": "name", "properties": { "name": "urn:ogc:def:crs:OGC:1.3:CRS84" } },
"features": [
{ "type": "Feature", "properties": { "Name": "KPC TODA (BSU - SARMIENTO CAMPUS)", "tessellate": -1, "extrude": 0, "visibility": -1 }, "geometry": { "type": "Point", "coordinates": [ 121.0571462039198, 14.813075473730629, 0.0 ] } },
{ "type": "Feature", "properties": { "Name": "PNCSJ TODA (CAMELLA STARMALL)", "tessellate": -1, "extrude": 0, "visibility": -1 }, "geometry": { "type": "Point", "coordinates": [ 121.073535278936902, 14.810996934274311, 92.588432986310551 ] } },
{ "type": "Feature", "properties": { "Name": "KPC TODA (STARMALL)", "tessellate": -1, "extrude": 0, "visibility": -1 }, "geometry": { "type": "Point", "coordinates": [ 121.071179856628802, 14.81345135704623, 0.0 ] } },
{ "type": "Feature", "properties": { "Name": "PALMERA TODA (STARMALL)", "tessellate": -1, "extrude": 0, "visibility": -1 }, "geometry": { "type": "Point", "coordinates": [ 121.072468277145404, 14.813454797901541, 113.198177916227394 ] } },
{ "type": "Feature", "properties": { "Name": "KPC TODA (STARMALL)", "tessellate": -1, "extrude": 0, "visibility": -1 }, "geometry": { "type": "Point", "coordinates": [ 121.072616537964905, 14.81452485330648, 0.0 ] } },
{ "type": "Feature", "properties": { "Name": "BSCRPC TODA (STARMALL)", "tessellate": -1, "extrude": 0, "visibility": -1 }, "geometry": { "type": "Point", "coordinates": [ 121.072679820093498, 14.81447030915678, 0.0 ] } },
{ "type": "Feature", "properties": { "Name": "IPC NLSA TODA (STARMALL)", "tessellate": -1, "extrude": 0, "visibility": -1 }, "geometry": { "type": "Point", "coordinates": [ 121.073396159986103, 14.814502844249031, 111.518983937801394 ] } },
{ "type": "Feature", "properties": { "Name": "SCT TODA (GUZMANVILLE)", "tessellate": -1, "extrude": 0, "visibility": -1 }, "geometry": { "type": "Point", "coordinates": [ 121.075358164058798, 14.818130007688239, 0.0 ] } },
{ "type": "Feature", "properties": { "Name": "SCT TODA (BARANGAY HALL)", "tessellate": -1, "extrude": 0, "visibility": -1 }, "geometry": { "type": "Point", "coordinates": [ 121.077501187293606, 14.82574191300335, 0.0 ] } },
{ "type": "Feature", "properties": { "Name": "SCT TODA (STO CRISTO)", "tessellate": -1, "extrude": 0, "visibility": -1 }, "geometry": { "type": "Point", "coordinates": [ 121.081969395893694, 14.825474582417479, 0.0 ] } },
{ "type": "Feature", "properties": { "Name": "SCT TODA (STO CRISTO)", "tessellate": -1, "extrude": 0, "visibility": -1 }, "geometry": { "type": "Point", "coordinates": [ 121.078060581717494, 14.82566063555519, 64.783113459363193 ] } },
{ "type": "Feature", "properties": { "Name": "SCT TODA (EXECUTIVE)", "tessellate": -1, "extrude": 0, "visibility": -1 }, "geometry": { "type": "Point", "coordinates": [ 121.078662037008201, 14.829035992871709, 0.0 ] } },
{ "type": "Feature", "properties": { "Name": "SCT TODA (STO CRISTO ELEM)", "tessellate": -1, "extrude": 0, "visibility": -1 }, "geometry": { "type": "Point", "coordinates": [ 121.076889769741001, 14.83059038011303, 0.0 ] } },
{ "type": "Feature", "properties": { "Name": "GAYA-GAYA TODA (TUBIGAN)", "tessellate": -1, "extrude": 0, "visibility": -1 }, "geometry": { "type": "Point", "coordinates": [ 121.046581599608999, 14.796986956258239, 70.161543631763905 ] } },
{ "type": "Feature", "properties": { "Name": "HEROSVILLE TODA", "tessellate": -1, "extrude": 0, "visibility": -1 }, "geometry": { "type": "Point", "coordinates": [ 121.040785981486707, 14.78941145227116, 54.798094850343212 ] } },
{ "type": "Feature", "properties": { "Name": "MUZON TODA (MELODY PLAIN)", "tessellate": -1, "extrude": 0, "visibility": -1 }, "geometry": { "type": "Point", "coordinates": [ 121.032461612521899, 14.793001147424089, 56.97228949872531 ] } },
{ "type": "Feature", "properties": { "Name": "MUZON TODA (PABAHAY)", "tessellate": -1, "extrude": 0, "visibility": -1 }, "geometry": { "type": "Point", "coordinates": [ 121.032417592182497, 14.799123170722821, 76.431549940655387 ] } },
{ "type": "Feature", "properties": { "Name": "MUZON TODA (PABAHAY INSIDE)", "tessellate": -1, "extrude": 0, "visibility": -1 }, "geometry": { "type": "Point", "coordinates": [ 121.033698427204101, 14.79121181941197, 51.059862684586619 ] } },
{ "type": "Feature", "properties": { "Name": "KELSEY HILLS TODA", "tessellate": -1, "extrude": 0, "visibility": -1 }, "geometry": { "type": "Point", "coordinates": [ 121.031963573316503, 14.799300181163931, 74.641100516428125 ] } },
{ "type": "Feature", "properties": { "Name": "MUZON TODA (PUREGOLD)", "tessellate": -1, "extrude": 0, "visibility": -1 }, "geometry": { "type": "Point", "coordinates": [ 121.035074581688505, 14.80359883034154, 97.921850597379247 ] } },
{ "type": "Feature", "properties": { "Name": "SCT TODA (NORTHGATE PARK)", "tessellate": -1, "extrude": 0, "visibility": -1 }, "geometry": { "type": "Point", "coordinates": [ 121.077322892968795, 14.82464496871825, 0.0 ] } },
{ "type": "Feature", "properties": { "Name": "DB TODA (PETRON KAYPIAN RD)", "tessellate": -1, "extrude": 0, "visibility": -1 }, "geometry": { "type": "Point", "coordinates": [ 121.045510326633405, 14.82309531992817, 0.0 ] } },
{ "type": "Feature", "properties": { "Name": "FRANCISCO TODA (TALIPAPA)", "tessellate": -1, "extrude": 0, "visibility": -1 }, "geometry": { "type": "Point", "coordinates": [ 121.057545051206304, 14.809085110952591, 0.0 ] } },
{ "type": "Feature", "properties": { "Name": "SJ POBLACION 1 TODA (ROBINSON)", "tessellate": -1, "extrude": 0, "visibility": -1 }, "geometry": { "type": "Point", "coordinates": [ 121.048066907137496, 14.80922231971469, 0.0 ] } },
{ "type": "Feature", "properties": { "Name": "KPC TODA (UNIVERSITY HEIGHTS OUTSIDE)", "tessellate": -1, "extrude": 0, "visibility": -1 }, "geometry": { "type": "Point", "coordinates": [ 121.059301952306697, 14.815859295752251, 91.922872151106858 ] } },
{ "type": "Feature", "properties": { "Name": "SJ POBLACION TODA (SAINT JOSEPH PARISH)", "tessellate": -1, "extrude": 0, "visibility": -1 }, "geometry": { "type": "Point", "coordinates": [ 121.047414238390004, 14.810013924566039, 0.0 ] } },
{ "type": "Feature", "properties": { "Name": "MUZON TODA (SAN JOSE HEIGHTS)", "tessellate": -1, "extrude": 0, "visibility": -1 }, "geometry": { "type": "Point", "coordinates": [ 121.042181219064304, 14.808514837857979, 0.0 ] } },
{ "type": "Feature", "properties": { "Name": "MUZON TODA (SAN ISIDRO PARISH)", "tessellate": -1, "extrude": 0, "visibility": -1 }, "geometry": { "type": "Point", "coordinates": [ 121.033377530535304, 14.8027998707232, 0.0 ] } },
{ "type": "Feature", "properties": { "Name": "MUZON TODA (WET AND DRY MARKET)", "tessellate": -1, "extrude": 0, "visibility": -1 }, "geometry": { "type": "Point", "coordinates": [ 121.034153067415502, 14.801182050858159, 0.0 ] } },
{ "type": "Feature", "properties": { "Name": "MUZON TODA (BULACAN-CALOOCAN ROAD)", "tessellate": -1, "extrude": 0, "visibility": -1 }, "geometry": { "type": "Point", "coordinates": [ 121.030282225276906, 14.784300739113011, 0.0 ] } },
{ "type": "Feature", "properties": { "Name": "MUZON TODA (SARMIENTO HOMES INSIDE)", "tessellate": -1, "extrude": 0, "visibility": -1 }, "geometry": { "type": "Point", "coordinates": [ 121.035252115211094, 14.8073860747828, 0.0 ] } },
{ "type": "Feature", "properties": { "Name": "MUZON TODA (LAPOB PASE 2)", "tessellate": -1, "extrude": 0, "visibility": -1 }, "geometry": { "type": "Point", "coordinates": [ 121.028015266363795, 14.81167929965501, 0.0 ] } },
{ "type": "Feature", "properties": { "Name": "MUZON TODA (VILLA MUZON SUBDIVISION)", "tessellate": -1, "extrude": 0, "visibility": -1 }, "geometry": { "type": "Point", "coordinates": [ 121.027026021342394, 14.815135755085899, 0.0 ] } },
{ "type": "Feature", "properties": { "Name": "MUZON TODA (BENJAMIN)", "tessellate": -1, "extrude": 0, "visibility": -1 }, "geometry": { "type": "Point", "coordinates": [ 121.025071470998398, 14.819786477346859, 0.0 ] } },
{ "type": "Feature", "properties": { "Name": "SJ POBLACION 1 TODA (TERRAZZA)", "tessellate": -1, "extrude": 0, "visibility": -1 }, "geometry": { "type": "Point", "coordinates": [ 121.049908486540005, 14.811842477245341, 0.0 ] } },
{ "type": "Feature", "properties": { "Name": "SJ POBLACION TODA (CENTRAL SCHOOL)", "tessellate": -1, "extrude": 0, "visibility": -1 }, "geometry": { "type": "Point", "coordinates": [ 121.046123834120195, 14.81279457647144, 0.0 ] } },
{ "type": "Feature", "properties": { "Name": "MUZON TODA (SARMIENTO HOMES OUTSIDE)", "tessellate": -1, "extrude": 0, "visibility": -1 }, "geometry": { "type": "Point", "coordinates": [ 121.033723371315304, 14.80315418542633, 0.0 ] } },
{ "type": "Feature", "properties": { "Name": "MUZON TODA (VIVIANS)", "tessellate": -1, "extrude": 0, "visibility": -1 }, "geometry": { "type": "Point", "coordinates": [ 121.041355943909196, 14.806037587508021, 0.0 ] } },
{ "type": "Feature", "properties": { "Name": "MUZON TODA (MUZON CENTRAL)", "tessellate": -1, "extrude": 0, "visibility": -1 }, "geometry": { "type": "Point", "coordinates": [ 121.028632306600699, 14.7965958239546, 0.0 ] } },
{ "type": "Feature", "properties": { "Name": "FH TODA (SACRED HEART)", "tessellate": -1, "extrude": 0, "visibility": -1 }, "geometry": { "type": "Point", "coordinates": [ 121.057371723708897, 14.808566812559921, 0.0 ] } },
{ "type": "Feature", "properties": { "Name": "FH TODA (FCPC)", "tessellate": -1, "extrude": 0, "visibility": -1 }, "geometry": { "type": "Point", "coordinates": [ 121.0614846099906, 14.810760776326379, 0.0 ] } },
{ "type": "Feature", "properties": { "Name": "FH TODA (RC)", "tessellate": -1, "extrude": 0, "visibility": -1 }, "geometry": { "type": "Point", "coordinates": [ 121.063433931396602, 14.80995085502523, 0.0 ] } },
{ "type": "Feature", "properties": { "Name": "FH TODA (MONTESSORI)", "tessellate": -1, "extrude": 0, "visibility": -1 }, "geometry": { "type": "Point", "coordinates": [ 121.064838097420903, 14.811096514770799, 0.0 ] } },
{ "type": "Feature", "properties": { "Name": "FH TODA (WELCOME)", "tessellate": -1, "extrude": 0, "visibility": -1 }, "geometry": { "type": "Point", "coordinates": [ 121.067929599209904, 14.80687581691717, 0.0 ] } },
{ "type": "Feature", "properties": { "Name": "KPC (GUIJO)", "tessellate": -1, "extrude": 0, "visibility": -1 }, "geometry": { "type": "Point", "coordinates": [ 121.060743451723795, 14.815403958974221, 0.0 ] } },
{ "type": "Feature", "properties": { "Name": "FH TODA (GUIJO)", "tessellate": -1, "extrude": 0, "visibility": -1 }, "geometry": { "type": "Point", "coordinates": [ 121.060002394130393, 14.81395429077277, 0.0 ] } },
{ "type": "Feature", "properties": { "Name": "FH TODA (GUIJO)", "tessellate": -1, "extrude": 0, "visibility": -1 }, "geometry": { "type": "Point", "coordinates": [ 121.059691683199105, 14.812323302363991, 0.0 ] } },
{ "type": "Feature", "properties": { "Name": "GAYA-GAYA TODA (GRACEVILLE)", "tessellate": -1, "extrude": 0, "visibility": -1 }, "geometry": { "type": "Point", "coordinates": [ 121.0608102947742, 14.791786045395449, 0.0 ] } },
{ "type": "Feature", "properties": { "Name": "BGVTOD - MPCAS", "tessellate": -1, "extrude": 0, "visibility": -1 }, "geometry": { "type": "Point", "coordinates": [ 121.063313571558993, 14.79238908996027, 85.801672260942809 ] } },
{ "type": "Feature", "properties": { "Name": "TUNGKUNG MANGGA TODA (ST. PETER\/ TM CENTERPOINT)", "tessellate": -1, "extrude": 0, "visibility": -1 }, "geometry": { "type": "Point", "coordinates": [ 121.074113069699493, 14.78931276260121, 0.0 ] } },
{ "type": "Feature", "properties": { "Name": "TUNGKUNG MANGGA TODA (PETRON)", "tessellate": -1, "extrude": 0, "visibility": -1 }, "geometry": { "type": "Point", "coordinates": [ 121.072863686594999, 14.78989627873348, 0.0 ] } },
{ "type": "Feature", "properties": { "Name": "TUNGKUNG MANGGA tODA (PECSON\/CALTEX)", "tessellate": -1, "extrude": 0, "visibility": -1 }, "geometry": { "type": "Point", "coordinates": [ 121.074435466805596, 14.78692455128791, 0.0 ] } },
{ "type": "Feature", "properties": { "Name": "TUNGKUNG MANGGA TODA (SM SJDM)", "tessellate": -1, "extrude": 0, "visibility": -1 }, "geometry": { "type": "Point", "coordinates": [ 121.074986448427893, 14.78623982494643, 0.0 ] } },
{ "type": "Feature", "properties": { "Name": "GH TODA (GUMAOK ELEM)", "tessellate": -1, "extrude": 0, "visibility": -1 }, "geometry": { "type": "Point", "coordinates": [ 121.060505307714394, 14.79958220913316, 79.734051265636367 ] } },
{ "type": "Feature", "properties": { "Name": "KPC TODA (VILLAR SCHOOL)", "tessellate": -1, "extrude": 0, "visibility": -1 }, "geometry": { "type": "Point", "coordinates": [ 121.070834618641896, 14.819949270633961, 113.684918726453006 ] } },
{ "type": "Feature", "properties": { "Name": "KPC (KAYPIAN)", "tessellate": -1, "extrude": 0, "visibility": -1 }, "geometry": { "type": "Point", "coordinates": [ 121.057825755796102, 14.82712103030315, 68.521831566534189 ] } },
{ "type": "Feature", "properties": { "Name": "KPC TODA (ALFAMART\/ MARCELA 1)", "tessellate": -1, "extrude": 0, "visibility": -1 }, "geometry": { "type": "Point", "coordinates": [ 121.066205315332297, 14.819692472244819, 91.206442327996115 ] } },
{ "type": "Feature", "properties": { "Name": "KPC TODA (CARISSA 5)", "tessellate": -1, "extrude": 0, "visibility": -1 }, "geometry": { "type": "Point", "coordinates": [ 121.062385864505401, 14.82128272008589, 65.940344673353337 ] } },
{ "type": "Feature", "properties": { "Name": "MUZON TODA( HEIGHTS HS)", "tessellate": -1, "extrude": 0, "visibility": -1 }, "geometry": { "type": "Point", "coordinates": [ 121.039613171355896, 14.811262945307069, 43.159397340392182 ] } }
]
}
